{
  "pois": [
    {
      "poi_id": "poi_001",
      "name": "星河亲子探索乐园",
      "type": "亲子乐园",
      "district": "徐汇区",
      "lat": 31.1801,
      "lng": 121.4402,
      "tags": ["indoor", "playground", "interactive", "educational", "kids"],
      "suitable_scenes": ["family"],
      "age_range": [2, 12],
      "open_time": "09:30",
      "close_time": "20:00",
      "avg_duration_min": 100,
      "rating": 4.7,
      "price": 128,
      "indoor": true
    },
    {
      "poi_id": "poi_002",
      "name": "魔法科学互动馆",
      "type": "科普馆",
      "district": "徐汇区",
      "lat": 31.1920,
      "lng": 121.4450,
      "tags": ["indoor", "science", "interactive", "educational", "kids", "family"],
      "suitable_scenes": ["family", "friends"],
      "age_range": [4, 99],
      "open_time": "10:00",
      "close_time": "18:00",
      "avg_duration_min": 90,
      "rating": 4.5,
      "price": 88,
      "indoor": true
    },
    {
      "poi_id": "poi_003",
      "name": "西岸艺术中心",
      "type": "展览",
      "district": "徐汇区",
      "lat": 31.1670,
      "lng": 121.4580,
      "tags": ["indoor", "art", "photo_friendly", "exhibition", "modern"],
      "suitable_scenes": ["friends", "family"],
      "age_range": [6, 99],
      "open_time": "10:00",
      "close_time": "19:00",
      "avg_duration_min": 90,
      "rating": 4.6,
      "price": 60,
      "indoor": true
    },
    {
      "poi_id": "poi_004",
      "name": "衡复风貌区CityWalk路线",
      "type": "citywalk",
      "district": "徐汇区",
      "lat": 31.2100,
      "lng": 121.4450,
      "tags": ["outdoor", "photo_friendly", "historic", "relaxing", "social"],
      "suitable_scenes": ["friends"],
      "age_range": [12, 99],
      "open_time": "00:00",
      "close_time": "23:59",
      "avg_duration_min": 60,
      "rating": 4.4,
      "price": 0,
      "indoor": false
    },
    {
      "poi_id": "poi_005",
      "name": "美罗城商场主题展",
      "type": "商场活动",
      "district": "徐汇区",
      "lat": 31.1925,
      "lng": 121.4380,
      "tags": ["indoor", "shopping", "food", "family", "social", "photo_friendly"],
      "suitable_scenes": ["family", "friends"],
      "age_range": [0, 99],
      "open_time": "10:00",
      "close_time": "22:00",
      "avg_duration_min": 60,
      "rating": 4.3,
      "price": 0,
      "indoor": true
    },
    {
      "poi_id": "poi_006",
      "name": "欢乐桌游俱乐部",
      "type": "桌游店",
      "district": "徐汇区",
      "lat": 31.2000,
      "lng": 121.4480,
      "tags": ["indoor", "social", "board_game", "group", "chat_friendly"],
      "suitable_scenes": ["friends"],
      "age_range": [10, 99],
      "open_time": "11:00",
      "close_time": "23:00",
      "avg_duration_min": 120,
      "rating": 4.4,
      "price": 45,
      "indoor": true
    },
    {
      "poi_id": "poi_007",
      "name": "永平里小吃文化街",
      "type": "小吃街",
      "district": "静安区",
      "lat": 31.2250,
      "lng": 121.4500,
      "tags": ["outdoor", "food", "social", "casual", "night"],
      "suitable_scenes": ["friends"],
      "age_range": [6, 99],
      "open_time": "10:00",
      "close_time": "23:00",
      "avg_duration_min": 60,
      "rating": 4.2,
      "price": 0,
      "indoor": false
    },
    {
      "poi_id": "poi_008",
      "name": "小不点自然探索馆",
      "type": "亲子科普",
      "district": "长宁区",
      "lat": 31.2150,
      "lng": 121.4100,
      "tags": ["indoor", "animals", "nature", "interactive", "kids", "educational"],
      "suitable_scenes": ["family"],
      "age_range": [3, 10],
      "open_time": "09:00",
      "close_time": "17:00",
      "avg_duration_min": 80,
      "rating": 4.6,
      "price": 98,
      "indoor": true
    },
    {
      "poi_id": "poi_009",
      "name": "武康路网红打卡街",
      "type": "citywalk",
      "district": "徐汇区",
      "lat": 31.2070,
      "lng": 121.4380,
      "tags": ["outdoor", "photo_friendly", "historic", "coffee", "social"],
      "suitable_scenes": ["friends"],
      "age_range": [6, 99],
      "open_time": "00:00",
      "close_time": "23:59",
      "avg_duration_min": 50,
      "rating": 4.5,
      "price": 0,
      "indoor": false
    },
    {
      "poi_id": "poi_010",
      "name": "亲子烘焙体验馆",
      "type": "互动体验",
      "district": "徐汇区",
      "lat": 31.1900,
      "lng": 121.4420,
      "tags": ["indoor", "cooking", "interactive", "family", "kids", "cozy"],
      "suitable_scenes": ["family"],
      "age_range": [3, 99],
      "open_time": "10:00",
      "close_time": "20:00",
      "avg_duration_min": 90,
      "rating": 4.5,
      "price": 158,
      "indoor": true
    },
    {
      "poi_id": "poi_011",
      "name": "长风公园钓鱼池",
      "type": "钓鱼",
      "district": "普陀区",
      "lat": 31.2244,
      "lng": 121.3957,
      "tags": ["outdoor", "fishing", "relaxing"],
      "suitable_scenes": ["solo", "friends"],
      "age_range": [12, 99],
      "open_time": "08:00",
      "close_time": "18:00",
      "avg_duration_min": 120,
      "rating": 4.4,
      "price": 80,
      "indoor": false
    },
    {
      "poi_id": "poi_012",
      "name": "梧桐里清吧",
      "type": "清吧",
      "district": "徐汇区",
      "lat": 31.2110,
      "lng": 121.4380,
      "tags": ["indoor", "bar", "quiet", "night", "relaxing"],
      "suitable_scenes": ["solo", "friends", "couple"],
      "age_range": [18, 99],
      "open_time": "18:00",
      "close_time": "02:00",
      "avg_duration_min": 120,
      "rating": 4.5,
      "price": 120,
      "indoor": true
    },
    {
      "poi_id": "poi_013",
      "name": "跃动空间蹦床馆",
      "type": "蹦床馆",
      "district": "徐汇区",
      "lat": 31.1940,
      "lng": 121.4310,
      "tags": ["indoor", "trampoline", "sports", "relaxing"],
      "suitable_scenes": ["solo", "friends", "family"],
      "age_range": [6, 99],
      "open_time": "10:00",
      "close_time": "21:00",
      "avg_duration_min": 90,
      "rating": 4.6,
      "price": 108,
      "indoor": true
    },
    {
      "poi_id": "poi_014",
      "name": "云境五星级酒店酒廊",
      "type": "五星级酒店",
      "district": "静安区",
      "lat": 31.2180,
      "lng": 121.4490,
      "tags": ["indoor", "hotel", "hotel_lounge", "quiet", "relaxing"],
      "suitable_scenes": ["solo", "friends", "couple", "family"],
      "age_range": [0, 99],
      "open_time": "10:00",
      "close_time": "23:30",
      "avg_duration_min": 120,
      "rating": 4.8,
      "price": 260,
      "indoor": true
    }
  ]
}
